{
  "type": "FeatureCollection",
  "features":[
    {
      "type": "Feature",
      "properties":{
        "name": "WVROX",
        "marker-symbol":"circle",
        "marker-size":"medium",
        "marker-color":"#357e7e",
        "key": "2018wvrox",
        "address": "Morgantown, WV 26506, USA",
        "city": "Morgantown",
        "state_prov": "WV"
      },
      "geometry":{
        "type":"Point",
        "coordinates": [
          -79.95593579999999,
          39.6361396
        ]
      }
    },
    {
      "type": "Feature",
      "properties":{
        "name": "WOW Alliance District Championship",
        "marker-symbol":"circle",
        "marker-size":"medium",
        "key": "2018wowcmp",
        "address": "170 Center St, Westerville, OH 43081, USA",
        "city": "Westerville",
        "state_prov": "OH",
        "marker-color":"#357e7e"
      },
      "geometry":{
        "type":"Point",
        "coordinates": [
          -82.9370677,
          40.13012940000001
        ]
      }
    },
    {
      "type": "Feature",
      "properties":{
        "name": "Winsconsin Regional",
        "marker-symbol":"circle",
        "marker-size":"medium",
        "marker-color":"#357e7e",
        "key": "2018wimi",
        "address": "400 W Kilbourn Ave, Milwaukee, WI 53203, USA",
        "city": "Milwaukee",
        "state_prov": "WI"
      },
      "geometry":{
        "type":"Point",
        "coordinates": [
          -87.9168724,
          43.0417381
        ]
      }
    },
    {
      "type": "Feature",
      "properties":{
        "name": "Seven Rivers Regional",
        "marker-symbol":"circle",
        "marker-size":"medium",
        "marker-color":"#357e7e",
        "key": "2018wila",
        "address": "300 Harborview Plaza, La Crosse, WI 54601, USA",
        "city": "La Crosse",
        "state_prov": "WI"
      },
      "geometry":{
        "type":"Point",
        "coordinates": [
          -91.25572419999999,
          43.8122334
        ]
      }
    },
    {
      "type": "Feature",
      "properties":{
        "name": "Rumble in the Roads",
        "marker-symbol":"circle",
        "marker-size":"medium",
        "marker-color":"#357e7e",
        "key": "2018varr",
        "address": "5800 Marshall Ave, Newport News, VA 23605, USA",
        "city": "Newport News",
        "state_prov": "VA"
      },
      "geometry":{
        "type":"Point",
        "coordinates": [
          -76.4272036,
          37.0063383
        ]
      }
    },
    {
      "type": "Feature",
      "properties":{
        "name": "CHS District Hampton Roads Event sponsored by Newport News Shipbuilding",
        "marker-symbol":"circle",
        "marker-size":"medium",
        "marker-color":"#357e7e",
        "key": "2018vapor",
        "address": "4301 Cedar Lane, Portsmouth, VA 23703, USA",
        "city": "Portsmouth",
        "state_prov": "VA"
      },
      "geometry":{
        "type":"Point",
        "coordinates": [
          -76.3709524,
          36.8804329
        ]
      }
    },
    {
      "type": "Feature",
      "properties":{
        "name": "CHS District Northern Virginia Event",
        "marker-symbol":"circle",
        "marker-size":"medium",
        "marker-color":"#357e7e",
        "key": "2018vahay",
        "address": "15000 Graduation Dr, Haymarket, VA 20169, USA",
        "city": "Haymarket",
        "state_prov": "VA"
      },
      "geometry":{
        "type":"Point",
        "coordinates": [
          -77.6298068,
          38.8453326
        ]
      }
    },
    {
      "type": "Feature",
      "properties":{
        "name": "CHS District Central Virginia Event sponsored by Dominion Energy",
        "marker-symbol":"circle",
        "marker-size":"medium",
        "marker-color":"#357e7e",
        "key": "2018vagle",
        "address": "4801 Twin Hickory Rd, Glen Allen, VA 23059, USA",
        "city": "Glen Allen",
        "state_prov": "VA"
      },
      "geometry":{
        "type":"Point",
        "coordinates": [
          -77.5996397,
          37.6756382
        ]
      }
    },
    {
      "type": "Feature",
      "properties":{
        "name": "CHS District Greater DC Event co-sponsored by Micron",
        "marker-symbol":"circle",
        "marker-size":"medium",
        "marker-color":"#357e7e",
        "key": "2018vagdc",
        "address": "7630 Telegraph Rd, Alexandria, VA 22315, USA",
        "city": "Alexandria",
        "state_prov": "VA"
      },
      "geometry":{
        "type":"Point",
        "coordinates": [
          -77.1432134,
          38.750849
        ]
      }
    },
    {
      "type": "Feature",
      "properties":{
        "name": "CHS District Southwest Virginia Event sponsored by Anton Paar",
        "marker-symbol":"circle",
        "marker-size":"medium",
        "marker-color":"#357e7e",
        "key": "2018vabla",
        "address": "3001 N Boulevard, Richmond, VA 23230, USA",
        "city": "Richmond",
        "state_prov": "VA"
      },
      "geometry":{
        "type":"Point",
        "coordinates": [
          -77.4636598,
          37.5736027
        ]
      }
    },
    {
      "type": "Feature",
      "properties":{
        "name": "Secret City Invitational",
        "marker-symbol":"circle",
        "marker-size":"medium",
        "marker-color":"#357e7e",
        "key": "2018tnsci",
        "address": "1450 Oak Ridge Turnpike, Oak Ridge, TN 37830, USA",
        "city": "Oak Ridge",
        "state_prov": "TN"
      },
      "geometry":{
        "type":"Point",
        "coordinates": [
          -84.26061299999999,
          36.0163166
        ]
      }
    },
    {
      "type": "Feature",
      "properties":{
        "name": "Smoky Mountains Regional",
        "marker-symbol":"circle",
        "marker-size":"medium",
        "marker-color":"#357e7e",
        "key": "2018tnkn",
        "address": "1600 Phillip Fulmer Way #202, Knoxville, TN 37996, USA",
        "city": "Knoxville",
        "state_prov": "TN"
      },
      "geometry":{
        "type":"Point",
        "coordinates": [
          -83.9250359,
          35.95117940000001
        ]
      }
    },
    {
      "type": "Feature",
      "properties":{
        "name": "Tesla Division",
        "marker-symbol":"circle",
        "marker-size":"medium",
        "marker-color":"#357e7e",
        "key": "2018tes",
        "address": "1 Washington Blvd, Detroit, MI 48226, USA",
        "city": "Detroit",
        "state_prov": "MI"
      },
      "geometry":{
        "type":"Point",
        "coordinates": [
          -83.04995199999999,
          42.32661599999999
        ]
      }
    },
    {
      "type": "Feature",
      "properties":{
        "name": "Palmetto Regional",
        "marker-symbol":"circle",
        "marker-size":"medium",
        "marker-color":"#357e7e",
        "key": "2018scmb",
        "address": "2101 N Oak St, Myrtle Beach, SC 29579, USA",
        "city": "Myrtle Beach",
        "state_prov": "SC"
      },
      "geometry":{
        "type":"Point",
        "coordinates": [
          -78.8741921,
          33.7065801
        ]
      }
    },
    {
      "type": "Feature",
      "properties":{
        "name": "MAR District Westtown Event",
        "marker-symbol":"circle",
        "marker-size":"medium",
        "marker-color":"#357e7e",
        "key": "2018pawch",
        "address": "975 Westtown Rd, West Chester, PA 19382, USA",
        "city": "West Chester",
        "state_prov": "PA"
      },
      "geometry":{
        "type":"Point",
        "coordinates": [
          -75.53830599999999,
          39.9483
        ]
      }
    },
    {
      "type": "Feature",
      "properties":{
        "name": "MAR District Springside Chestnut Hill Academy Event",
        "marker-symbol":"circle",
        "marker-size":"medium",
        "marker-color":"#357e7e",
        "key": "2018paphi",
        "address": "500 W Willow Grove Ave, Philadelphia, PA 19118, United States",
        "city": "Philadelphia",
        "state_prov": "PA"
      },
      "geometry":{
        "type":"Point",
        "coordinates": [
          -75.20953469999999,
          40.06155810000001
        ]
      }
    },
    {
      "type": "Feature",
      "properties":{
        "name": "MAR District Hatboro-Horsham Event",
        "marker-symbol":"circle",
        "marker-size":"medium",
        "marker-color":"#357e7e",
        "key": "2018pahat",
        "address": "899 Horsham Rd, Horsham, PA 19044, USA",
        "city": "Horsham",
        "state_prov": "PA"
      },
      "geometry":{
        "type":"Point",
        "coordinates": [
          -75.1635218,
          40.1977406
        ]
      }
    },
    {
      "type": "Feature",
      "properties":{
        "name": "Greater Pittsburgh Regional",
        "marker-symbol":"circle",
        "marker-size":"medium",
        "marker-color":"#357e7e",
        "key": "2018paca",
        "address": "250 University Ave, California, PA 15419, USA",
        "city": "California",
        "state_prov": "PA"
      },
      "geometry":{
        "type":"Point",
        "coordinates": [
          -79.88185589999999,
          40.0631695
        ]
      }
    },
    {
      "type": "Feature",
      "properties":{
        "name": "CORI Invitational",
        "marker-symbol":"circle",
        "marker-size":"medium",
        "marker-color":"#357e7e",
        "key": "2018ohri",
        "address": "1499 Hard Rd, Columbus, OH 43235, USA",
        "city": "Columbus",
        "state_prov": "OH"
      },
      "geometry":{
        "type":"Point",
        "coordinates": [
          -83.05593789999999,
          40.115233
        ]
      }
    },
    {
      "type": "Feature",
      "properties":{
        "name": "Miami Valley Regional",
        "marker-symbol":"circle",
        "marker-size":"medium",
        "marker-color":"#357e7e",
        "key": "2018ohmv",
        "address": "3640 Colonel Glenn Hwy, Fairborn, OH 45435, USA",
        "city": "Fairborn",
        "state_prov": "OH"
      },
      "geometry":{
        "type":"Point",
        "coordinates": [
          -84.0579813,
          39.7844997
        ]
      }
    },
    {
      "type": "Feature",
      "properties":{
        "name": "Buckeye Regional",
        "marker-symbol":"circle",
        "marker-size":"medium",
        "marker-color":"#357e7e",
        "key": "2018ohcl",
        "address": "2000 Prospect Ave E, Cleveland, OH 44115, USA",
        "city": "Cleveland",
        "state_prov": "OH"
      },
      "geometry":{
        "type":"Point",
        "coordinates": [
          -81.6769022,
          41.4992532
        ]
      }
    },
    {
      "type": "Feature",
      "properties":{
        "name": "Central New York Regional",
        "marker-symbol":"circle",
        "marker-size":"medium",
        "marker-color":"#357e7e",
        "key": "2018nyut",
        "address": "Kunsela Hall, 100 Seymour Ave, Utica, NY 13502, USA",
        "city": "Utica",
        "state_prov": "NY"
      },
      "geometry":{
        "type":"Point",
        "coordinates": [
          -75.2298915,
          43.1355755
        ]
      }
    },
    {
      "type": "Feature",
      "properties":{
        "name": "New York Tech Valley Regional",
        "marker-symbol":"circle",
        "marker-size":"medium",
        "marker-color":"#357e7e",
        "key": "2018nytr",
        "address": "110 8th St, Troy, NY 12180, USA",
        "city": "Troy",
        "state_prov": "NY"
      },
      "geometry":{
        "type":"Point",
        "coordinates": [
          -73.67880300000002,
          42.73017199999999
        ]
      }
    },
    {
      "type": "Feature",
      "properties":{
        "name": "Hudson Valley Regional",
        "marker-symbol":"circle",
        "marker-size":"medium",
        "marker-color":"#357e7e",
        "key": "2018nysu",
        "address": "145 College Road, Suffern, NY 10901, USA",
        "city": "Suffern",
        "state_prov": "NY"
      },
      "geometry":{
        "type":"Point",
        "coordinates": [
          -74.090226,
          41.1334696
        ]
      }
    },
    {
      "type": "Feature",
      "properties":{
        "name": "Rochester Rally",
        "marker-symbol":"circle",
        "marker-size":"medium",
        "marker-color":"#357e7e",
        "key": "2018nyrra",
        "address": "25 High School Dr, Penfield, NY 14526, USA",
        "city": "Penfield",
        "state_prov": "NY"
      },
      "geometry":{
        "type":"Point",
        "coordinates": [
          -77.4709142,
          43.1366228
        ]
      }
    },
    {
      "type": "Feature",
      "properties":{
        "name": "Rah Cha Cha Ruckus",
        "marker-symbol":"circle",
        "marker-size":"medium",
        "marker-color":"#357e7e",
        "key": "2018nyrr",
        "address": "900 E Main St, Rochester, NY 14605, USA",
        "city": "Rochester",
        "state_prov": "NY"
      },
      "geometry":{
        "type":"Point",
        "coordinates": [
          -77.5880427,
          43.16192789999999
        ]
      }
    },
    {
      "type": "Feature",
      "properties":{
        "name": "Finger Lakes Regional",
        "marker-symbol":"circle",
        "marker-size":"medium",
        "marker-color":"#357e7e",
        "key": "2018nyro",
        "address": "Rochester, NY 14623, USA",
        "city": "Rochester",
        "state_prov": "NY"
      },
      "geometry":{
        "type":"Point",
        "coordinates": [
          -77.6716407,
          43.0851053
        ]
      }
    },
    {
      "type": "Feature",
      "properties":{
        "name": "Regal Eagle Rampage",
        "marker-symbol":"circle",
        "marker-size":"medium",
        "marker-color":"#357e7e",
        "key": "2018nyrer",
        "address": "Old Westbury, NY 11568, USA",
        "city": "Old Westbury",
        "state_prov": "NY"
      },
      "geometry":{
        "type":"Point",
        "coordinates": [
          -73.59124969999999,
          40.81671600000001
        ]
      }
    },
    {
      "type": "Feature",
      "properties":{
        "name": "New York City Regional",
        "marker-symbol":"circle",
        "marker-size":"medium",
        "marker-color":"#357e7e",
        "key": "2018nyny",
        "address": "The Armory, 216 Fort Washington Ave, New York, NY 10032, USA",
        "city": "New York",
        "state_prov": "NY"
      },
      "geometry":{
        "type":"Point",
        "coordinates": [
          -73.941251,
          40.8421049
        ]
      }
    },
    {
      "type": "Feature",
      "properties":{
        "name": "SBPLI Long Island Regional #2",
        "marker-symbol":"circle",
        "marker-size":"medium",
        "marker-color":"#357e7e",
        "key": "2018nyli2",
        "address": "1000 Fulton Ave, Hempstead, NY 11549, USA",
        "city": "Hempstead",
        "state_prov": "NY"
      },
      "geometry":{
        "type":"Point",
        "coordinates": [
          -73.5985336,
          40.7165676
        ]
      }
    },
    {
      "type": "Feature",
      "properties":{
        "name": "SBPLI Long Island Regional #1",
        "marker-symbol":"circle",
        "marker-size":"medium",
        "marker-color":"#357e7e",
        "key": "2018nyli",
        "address": "1000 Fulton Ave, Hempstead, NY 11549, USA",
        "city": "Hempstead",
        "state_prov": "NY"
      },
      "geometry":{
        "type":"Point",
        "coordinates": [
          -73.5985336,
          40.7165676
        ]
      }
    },
    {
      "type": "Feature",
      "properties":{
        "name": "MAR District Seneca Event",
        "marker-symbol":"circle",
        "marker-size":"medium",
        "marker-color":"#357e7e",
        "key": "2018njtab",
        "address": "110 Carranza Rd, Tabernacle, NJ 08088, USA",
        "city": "Tabernacle",
        "state_prov": "NJ"
      },
      "geometry":{
        "type":"Point",
        "coordinates": [
          -74.717578,
          39.8573487
        ]
      }
    },
    {
      "type": "Feature",
      "properties":{
        "name": "MAR District Montgomery Event",
        "marker-symbol":"circle",
        "marker-size":"medium",
        "marker-color":"#357e7e",
        "key": "2018njski",
        "address": "1016 Co Rd 601, Skillman, NJ 08558, USA",
        "city": "Montgomery",
        "state_prov": "NJ"
      },
      "geometry":{
        "type":"Point",
        "coordinates": [
          -74.7064384,
          40.4174592          
        ]
      }
    },
    {
      "type": "Feature",
      "properties":{
        "name": "MidKnight Mayhem",
        "marker-symbol":"circle",
        "marker-size":"medium",
        "marker-color":"#357e7e",
        "key": "2018njmm",
        "address": "90 Grovers Mill Rd, Plainsboro Township, NJ 08536, USA",
        "city": "New Jersey",
        "state_prov": "NJ"
      },
      "geometry":{
        "type":"Point",
        "coordinates": [
          -74.6006179,
          40.3225097
        ]
      }
    },
    {
      "type": "Feature",
      "properties":{
        "name": "MAR District Mount Olive Event",
        "marker-symbol":"circle",
        "marker-size":"medium",
        "marker-color":"#357e7e",
        "key": "2018njfla",
        "address": "18 Corey Rd, Flanders, NJ 07836, USA",
        "city": "Mount Olive Township",
        "state_prov": "NJ"
      },
      "geometry":{
        "type":"Point",
        "coordinates": [
          -74.713984,
          40.858616
        ]
      }
    },
    {
      "type": "Feature",
      "properties":{
        "name": "MAR District Bridgewater-Raritan Event",
        "marker-symbol":"circle",
        "marker-size":"medium",
        "marker-color":"#357e7e",
        "key": "2018njbri",
        "address": "600 Garretson Rd, Bridgewater, NJ 08807, USA",
        "city": "Bridgewater",
        "state_prov": "NJ"
      },
      "geometry":{
        "type":"Point",
        "coordinates": [
          -74.63451490000001,
          40.59299619999999
        ]
      }
    },
    {
      "type": "Feature",
      "properties":{
        "name": "Brunswick Eruption",
        "marker-symbol":"circle",
        "marker-size":"medium",
        "marker-color":"#357e7e",
        "key": "2018njbe",
        "address": "98 Raider Rd, North Brunswick Township, NJ 08902, USA",
        "city": "North Brunswick Township",
        "state_prov": "NJ"
      },
      "geometry":{
        "type":"Point",
        "coordinates": [
          -74.46894379999999,
          40.4527824
        ]
      }
    },
    {
      "type": "Feature",
      "properties":{
        "name": "NC District Forsyth County Event",
        "marker-symbol":"circle",
        "marker-size":"medium",
        "marker-color":"#357e7e",
        "key": "2018ncwin",
        "address": "414 Deacon Blvd, Winston-Salem, NC 27105, USA",
        "city": "Winston-Salem",
        "state_prov": "NC"
      },
      "geometry":{
        "type":"Point",
        "coordinates": [
          -80.2537906,
          36.1279862
        ]
      }
    },
    {
      "type": "Feature",
      "properties":{
        "name": "NC District UNC Pembroke Event",
        "marker-symbol":"circle",
        "marker-size":"medium",
        "marker-color":"#357e7e",
        "key": "2018ncpem",
        "address": "1 University Drive, Pembroke, NC 28372, USA",
        "city": "Pembroke",
        "state_prov": "NC"
      },
      "geometry":{
        "type":"Point",
        "coordinates": [
          -79.2005721,
          34.68988379999999
        ]
      }
    },
    {
      "type": "Feature",
      "properties":{
        "name": "NC District Pitt County Event",
        "marker-symbol":"circle",
        "marker-size":"medium",
        "marker-color":"#357e7e",
        "key": "2018ncgre",
        "address": "1 Ficklen Dr, Greenville, NC 27858, USA",
        "city": "Greenville",
        "state_prov": "NC"
      },
      "geometry":{
        "type":"Point",
        "coordinates": [
          -77.36743899999999,
          35.59754689999999
        ]
      }
    },
    {
      "type": "Feature",
      "properties":{
        "name": "FIRST North Carolina State Championship",
        "marker-symbol":"circle",
        "marker-size":"medium",
        "marker-color":"#357e7e",
        "key": "2018nccmp",
        "address": "56 Main Street NC, Buies Creek, NC 27506, USA",
        "city": "Buies Creek",
        "state_prov": "NC"
      },
      "geometry":{
        "type":"Point",
        "coordinates": [
          -78.7367719,
          35.4078504
        ]
      }
    },
    {
      "type": "Feature",
      "properties":{
        "name": "NC District UNC Asheville Event",
        "marker-symbol":"circle",
        "marker-size":"medium",
        "marker-color":"#357e7e",
        "key": "2018ncash",
        "address": "1 University Heights, Asheville, NC 28804, USA",
        "city": "Asheville",
        "state_prov": "NC"
      },
      "geometry":{
        "type":"Point",
        "coordinates": [
          -82.5673127,
          35.6162921
        ]
      }
    },
    {
      "type": "Feature",
      "properties":{
        "name": "Mahoning Valley Robotics Challenge",
        "marker-symbol":"circle",
        "marker-size":"medium",
        "marker-color":"#357e7e",
        "key": "2018mvrc",
        "address": "900-1104 S Raccoon Rd, Austintown, OH 44515, USA",
        "city": "Austintown",
        "state_prov": "OH"
      },
      "geometry":{
        "type":"Point",
        "coordinates": [
          -80.73324480000001,
          41.0910766
        ]
      }
    },
    {
      "type": "Feature",
      "properties":{
        "name": "Beach Bot Battle",
        "marker-symbol":"circle",
        "marker-size":"medium",
        "marker-color":"#357e7e",
        "key": "2018msbbb",
        "address": "100 Perry St, Gulfport, MS 39507, USA",
        "city": "Gulfport",
        "state_prov": "MS"
      },
      "geometry":{
        "type":"Point",
        "coordinates": [
          -89.0414857,
          30.3897667
        ]
      }
    },
    {
      "type": "Feature",
      "properties":{
        "name": "FIRST Mid-Atlantic District Championship",
        "marker-symbol":"circle",
        "marker-size":"medium",
        "marker-color":"#357e7e",
        "key": "2018mrcmp",
        "address": "124 Goodman Dr S, Bethlehem, PA 18015, USA",
        "city": "Bethlehem",
        "state_prov": "PA"
      },
      "geometry":{
        "type":"Point",
        "coordinates": [
          -75.35740299999999,
          40.58528099999999

        ]
      }
    },
    {
      "type": "Feature",
      "properties":{
        "name": "St. Louis Regional",
        "marker-symbol":"circle",
        "marker-size":"medium",
        "marker-color":"#357e7e",
        "key": "2018mosl",
        "address": "1 S Compton Ave, St. Louis, MO 63103, USA",
        "city": "St. Louis",
        "state_prov": "MO"
      },
      "geometry":{
        "type":"Point",
        "coordinates": [
          -90.227955,
          38.632511
        ]
      }
    },
    {
      "type": "Feature",
      "properties":{
        "name": "Missouri State Championship",
        "marker-symbol":"circle",
        "marker-size":"medium",
        "marker-color":"#357e7e",
        "key": "2018mosc",
        "address": "2275 Sommers Rd, Lake St Louis, MO 63367, USA",
        "city": "Lake Saint Louis",
        "state_prov": "MO"
      },
      "geometry":{
        "type":"Point",
        "coordinates": [
          -90.78703279999999,
          38.75794849999999
        ]
      }
    },
    {
      "type": "Feature",
      "properties":{
        "name": "MSHSL FIRST State Robotics Championship",
        "marker-symbol":"circle",
        "marker-size":"medium",
        "marker-color":"#357e7e",
        "key": "2018mnsc",
        "address": "1901 4th St SE, Minneapolis, MN 55455, USA",
        "city": "Minneapolis",
        "state_prov": "MN"
      },
      "geometry":{
        "type":"Point",
        "coordinates": [
          -93.22802659999999,
          44.9781197
        ]
      }
    },
    {
      "type": "Feature",
      "properties":{
        "name": "Minnesota North Star Regional",
        "marker-symbol":"circle",
        "marker-size":"medium",
        "marker-color":"#357e7e",
        "key": "2018mnmi2",
        "address": "1901 4th St SE, Minneapolis, MN 55455, USA",
        "city": "Minneapolis",
        "state_prov": "MN"
      },
      "geometry":{
        "type":"Point",
        "coordinates": [
          -93.22802659999999,
          44.9781197
        ]
      }
    },
    {
      "type": "Feature",
      "properties":{
        "name": "Medtronic Foundation Regional",
        "marker-symbol":"circle",
        "marker-size":"medium",
        "marker-color":"#357e7e",
        "key": "2018mnmi",
        "address": "1925 University Ave SE, Minneapolis, MN 55455, USA",
        "city": "Minneapolis",
        "state_prov": "MN"
      },
      "geometry":{
        "type":"Point",
        "coordinates": [
          -93.22829800000001,
          44.976988
        ]
      }
    },
    {
      "type": "Feature",
      "properties":{
        "name": "FIM District West Michigan Event",
        "marker-symbol":"circle",
        "marker-size":"medium",
        "marker-color":"#357e7e",
        "key": "2018miwmi",
        "address": "1 Campus Dr, Allendale, MI 49401, USA",
        "city": "Michigan",
        "state_prov": "MI"
      },
      "geometry":{
        "type":"Point",
        "coordinates": [
          -85.8889465,
          42.9639355
        ]
      }
    },
    {
      "type": "Feature",
      "properties":{
        "name": "FIM District Waterford Event",
        "marker-symbol":"circle",
        "marker-size":"medium",
        "marker-color":"#357e7e",
        "key": "2018miwat",
        "address": "1151 Scott Lake Rd, Waterford Twp, MI 48328, USA",
        "city": "Waterford Township",
        "state_prov": "MI"
      },
      "geometry":{
        "type":"Point",
        "coordinates": [
          -83.3490497,
          42.6564663
        ]
      }
    },
    {
      "type": "Feature",
      "properties":{
        "name": "FIM District Traverse City Event",
        "marker-symbol":"circle",
        "marker-size":"medium",
        "marker-color":"#357e7e",
        "key": "2018mitvc",
        "address": "1150 Milliken Dr, Traverse City, MI 49686, USA",
        "city": "Traverse City",
        "state_prov": "MI"
      },
      "geometry":{
        "type":"Point",
        "coordinates": [
          -85.58806659999999,
          44.76894859999999
        ]
      }
    },
    {
      "type": "Feature",
      "properties":{
        "name": "FIM District Troy Event",
        "marker-symbol":"circle",
        "marker-size":"medium",
        "marker-color":"#357e7e",
        "key": "2018mitry",
        "address": "4333 John R Rd, Troy, MI 48085, USA",
        "city": "Troy",
        "state_prov": "MI"
      },
      "geometry":{
        "type":"Point",
        "coordinates": [
          -83.11195029999999,
          42.58196649999999
        ]
      }
    },
    {
      "type": "Feature",
      "properties":{
        "name": "FIM District Southfield Event",
        "marker-symbol":"circle",
        "marker-size":"medium",
        "marker-color":"#357e7e",
        "key": "2018misou",
        "address": "24675 Lahser Rd, Southfield, MI 48033, USA",
        "city": "Southfield",
        "state_prov": "MI"
      },
      "geometry":{
        "type":"Point",
        "coordinates": [
          -83.2633032,
          42.4694756
        ]
      }
    },
    {
      "type": "Feature",
      "properties":{
        "name": "FIM District St. Joseph Event",
        "marker-symbol":"circle",
        "marker-size":"medium",
        "marker-color":"#357e7e",
        "key": "2018misjo",
        "address": "2521 Stadium Dr, St Joseph, MI 49085, USA",
        "city": "Saint Joseph",
        "state_prov": "MI"
      },
      "geometry":{
        "type":"Point",
        "coordinates": [
          -86.49169429999999,
          42.08949680000001
        ]
      }
    },
    {
      "type": "Feature",
      "properties":{
        "name": "FIM District Shepherd Event",
        "marker-symbol":"circle",
        "marker-size":"medium",
        "marker-color":"#357e7e",
        "key": "2018mishe",
        "address": "100 E Hall St, Shepherd, MI 48883, USA",
        "city": "Shepherd",
        "state_prov": "MI"
      },
      "geometry":{
        "type":"Point",
        "coordinates": [
          -84.69053989999999,
          43.52176539999999
        ]
      }
    },
    {
      "type": "Feature",
      "properties":{
        "name": "ROBO-CON FRC Off Season Competition",
        "marker-symbol":"circle",
        "marker-size":"medium",
        "marker-color":"#357e7e",
        "key": "2018mirc",
        "address": "170 Millville Rd, Lapeer, MI 48446, USA",
        "city": "Lapeer",
        "state_prov": "MI"
      },
      "geometry":{
        "type":"Point",
        "coordinates": [
          -83.3413033,
          43.0556387
        ]
      }
    },
    {
      "type": "Feature",
      "properties":{
        "name": "FIM District Milford Event",
        "marker-symbol":"circle",
        "marker-size":"medium",
        "marker-color":"#357e7e",
        "key": "2018mimil",
        "address": "2380 S Milford Rd, Highland, MI 48357, USA",
        "city": "Highland Charter Township",
        "state_prov": "MI"
      },
      "geometry":{
        "type":"Point",
        "coordinates": [
          -83.6225752,
          42.61783380000001
        ]
      }
    },
    {
      "type": "Feature",
      "properties":{
        "name": "FIM District Midland Event",
        "marker-symbol":"circle",
        "marker-size":"medium",
        "marker-color":"#357e7e",
        "key": "2018mimid",
        "address": "3901 N Saginaw Rd, Midland, MI 48640, USA",
        "city": "Midland",
        "state_prov": "MI"
      },
      "geometry":{
        "type":"Point",
        "coordinates": [
          -84.2754104,
          43.6407382
        ]
      }
    },
    {
      "type": "Feature",
      "properties":{
        "name": "FIM District Marysville Event",
        "marker-symbol":"circle",
        "marker-size":"medium",
        "marker-color":"#357e7e",
        "key": "2018mimar",
        "address": "E., 555 Huron Blvd, Marysville, MI 48040, USA",
        "city": "Marysville",
        "state_prov": "MI"
      },
      "geometry":{
        "type":"Point",
        "coordinates": [
          -82.47544959999999,
          42.9111587
        ]
      }
    },
    {
      "type": "Feature",
      "properties":{
        "name": "FIM District Livonia Event",
        "marker-symbol":"circle",
        "marker-size":"medium",
        "marker-color":"#357e7e",
        "key": "2018miliv",
        "address": "8900 N Newburgh Rd, Livonia, MI 48150, USA",
        "city": "Livonia",
        "state_prov": "MI"
      },
      "geometry":{
        "type":"Point",
        "coordinates": [
          -83.4085504,
          42.355419
        ]
      }
    },
    {
      "type": "Feature",
      "properties":{
        "name": "FIM District Lincoln Event",
        "marker-symbol":"circle",
        "marker-size":"medium",
        "marker-color":"#357e7e",
        "key": "2018milin",
        "address": "7425 Willis Rd, Ypsilanti, MI 48197, USA",
        "city": "Ypsilanti",
        "state_prov": "MI"
      },
      "geometry":{
        "type":"Point",
        "coordinates": [
          -83.6110635,
          42.1586267
        ]
      }
    },
    {
      "type": "Feature",
      "properties":{
        "name": "FIM District Lansing Event",
        "marker-symbol":"circle",
        "marker-size":"medium",
        "marker-color":"#357e7e",
        "key": "2018milan",
        "address": "1001 S Barnes St, Mason, MI 48854, USA",
        "city": "Mason",
        "state_prov": "MI"
      },
      "geometry":{
        "type":"Point",
        "coordinates": [
          -84.4353129,
          42.570886
        ]
      }
    },
    {
      "type": "Feature",
      "properties":{
        "name": "FIM District Lakeview Event",
        "marker-symbol":"circle",
        "marker-size":"medium",
        "marker-color":"#357e7e",
        "key": "2018milak",
        "address": "15060 Helmer Rd S, Battle Creek, MI 49015, USA",
        "city": "Battle Creek",
        "state_prov": "MI"
      },
      "geometry":{
        "type":"Point",
        "coordinates": [
          -85.2355157,
          42.2916379
        ]
      }
    },
    {
      "type": "Feature",
      "properties":{
        "name": "FIM District Kettering University Event #1",
        "marker-symbol":"circle",
        "marker-size":"medium",
        "marker-color":"#357e7e",
        "key": "2018miket",
        "address": "1700 University Ave, Flint, MI 48504, USA",
        "city": "Flint",
        "state_prov": "MI"
      },
      "geometry":{
        "type":"Point",
        "coordinates": [
          -83.7138531,
          43.0115468
        ]
      }
    },
    {
      "type": "Feature",
      "properties":{
        "name": "FIM District East Kentwood Event",
        "marker-symbol":"circle",
        "marker-size":"medium",
        "marker-color":"#357e7e",
        "key": "2018miken",
        "address": "6230 Kalamazoo Ave SE, Kentwood, MI 49508, USA",
        "city": "Kentwood",
        "state_prov": "MI"
      },
      "geometry":{
        "type":"Point",
        "coordinates": [
          -85.6185354,
          42.85077099999999
        ]
      }
    },
    {
      "type": "Feature",
      "properties":{
        "name": "FIM District Kettering University Event #2",
        "marker-symbol":"circle",
        "marker-size":"medium",
        "marker-color":"#357e7e",
        "key": "2018mike2",
        "address": "1700 University Ave, Flint, MI 48504, USA",
        "city": "Flint",
        "state_prov": "MI"
      },
      "geometry":{
        "type":"Point",
        "coordinates": [
          -83.7138531,
          43.0115468
        ]
      }
    },
    {
      "type": "Feature",
      "properties":{
        "name": "FIM District Gull Lake Event",
        "marker-symbol":"circle",
        "marker-size":"medium",
        "marker-color":"#357e7e",
        "key": "2018migul",
        "address": "7753 N 34th St, Richland, MI 49083, USA",
        "city": "Richland",
        "state_prov": "MI"
      },
      "geometry":{
        "type":"Point",
        "coordinates": [
          -85.4393006,
          42.3727551
        ]
      }
    },
    {
      "type": "Feature",
      "properties":{
        "name": "FIM District Gibraltar Event",
        "marker-symbol":"circle",
        "marker-size":"medium",
        "marker-color":"#357e7e",
        "key": "2018migib",
        "address": "30550 W Jefferson Ave, Gibraltar, MI 48173, USA",
        "city": "Gibraltar",
        "state_prov": "MI"
      },
      "geometry":{
        "type":"Point",
        "coordinates": [
          -83.2115006,
          42.0855098
        ]
      }
    },
    {
      "type": "Feature",
      "properties":{
        "name": "Dickinson Center Week 0",
        "marker-symbol":"circle",
        "marker-size":"medium",
        "marker-color":"#357e7e",
        "key": "2018midcw0",
        "address": "18000 Newburgh Rd, Livonia, MI 48152, USA",
        "city": "Livonia",
        "state_prov": "MI"
      },
      "geometry":{
        "type":"Point",
        "coordinates": [
          -83.41045129999999,
          42.4168667
        ]
      }
    },
    {
      "type": "Feature",
      "properties":{
        "name": "Michigan State Championship - Dow Division",
        "marker-symbol":"circle",
        "marker-size":"medium",
        "marker-color":"#357e7e",
        "key": "2018micmp4",
        "address": "7400 Bay Rd, Saginaw, MI 48604, USA",
        "city": "Saginaw",
        "state_prov": "MI"
      },
      "geometry":{
        "type":"Point",
        "coordinates": [
          -83.9623559,
          43.51427329999999
        ]
      }
    },
    {
      "type": "Feature",
      "properties":{
        "name": "Michigan State Championship - Ford Division",
        "marker-symbol":"circle",
        "marker-size":"medium",
        "marker-color":"#357e7e",
        "key": "2018micmp3",
        "address": "7400 Bay Rd, Saginaw, MI 48604, USA",
        "city": "Saginaw",
        "state_prov": "MI"
      },
      "geometry":{
        "type":"Point",
        "coordinates": [
          -83.9623559,
          43.51427329999999
        ]
      }
    },
    {
      "type": "Feature",
      "properties":{
        "name": "Michigan State Championship - Consumers Energy Division",
        "marker-symbol":"circle",
        "marker-size":"medium",
        "marker-color":"#357e7e",
        "key": "2018micmp2",
        "address": "7400 Bay Rd, Saginaw, MI 48604, USA",
        "city": "Saginaw",
        "state_prov": "MI"
      },
      "geometry":{
        "type":"Point",
        "coordinates": [
          -83.9623559,
          43.51427329999999
        ]
      }
    },
    {
      "type": "Feature",
      "properties":{
        "name": "Michigan State Championship - DTE Energy Foundation Division",
        "marker-symbol":"circle",
        "marker-size":"medium",
        "marker-color":"#357e7e",
        "key": "2018micmp1",
        "address": "7400 Bay Rd, Saginaw, MI 48604, USA",
        "city": "Saginaw",
        "state_prov": "MI"
      },
      "geometry":{
        "type":"Point",
        "coordinates": [
          -83.9623559,
          43.51427329999999
        ]
      }
    },
    {
      "type": "Feature",
      "properties":{
        "name": "FIM District Center Line Event",
        "marker-symbol":"circle",
        "marker-size":"medium",
        "marker-color":"#357e7e",
        "key": "2018micen",
        "address": "26300 Arsenal St, Center Line, MI 48015, USA",
        "city": "Center Line",
        "state_prov": "MI"
      },
      "geometry":{
        "type":"Point",
        "coordinates": [
          -83.02047549999999,
          42.4867326
        ]
      }
    },
    {
      "type": "Feature",
      "properties":{
        "name": "FIM District Belleville Event",
        "marker-symbol":"circle",
        "marker-size":"medium",
        "marker-color":"#357e7e",
        "key": "2018mibel",
        "address": "501 W Columbia Ave, Belleville, MI 48111, USA",
        "city": "Belleville",
        "state_prov": "MI"
      },
      "geometry":{
        "type":"Point",
        "coordinates": [
          -83.4932839,
          42.2030303
        ]
      }
    },
    {
      "type": "Feature",
      "properties":{
        "name": "Big Bang!",
        "marker-symbol":"circle",
        "marker-size":"medium",
        "marker-color":"#357e7e",
        "key": "2018mibb",
        "address": "13333 Telegraph Rd, Taylor, MI 48180, USA",
        "city": "Taylor",
        "state_prov": "MI"
      },
      "geometry":{
        "type":"Point",
        "coordinates": [
          -83.2666596,
          42.209297
        ]
      }
    },
    {
      "type": "Feature",
      "properties":{
        "name": "FIM District Alpena Event",
        "marker-symbol":"circle",
        "marker-size":"medium",
        "marker-color":"#357e7e",
        "key": "2018mialp",
        "address": "3303 S 3rd Ave, Alpena, MI 49707, USA",
        "city": "Alpena",
        "state_prov": "MI"
      },
      "geometry":{
        "type":"Point",
        "coordinates": [
          -83.4675492,
          45.0560664
        ]
      }
    },
    {
      "type": "Feature",
      "properties":{
        "name": "CHS District Southern Maryland Event",
        "marker-symbol":"circle",
        "marker-size":"medium",
        "marker-color":"#357e7e",
        "key": "2018mdoxo",
        "address": "6701 Leyte Drive, Oxon Hill, MD 20745, USA",
        "city": "Oxon Hill",
        "state_prov": "MD"
      },
      "geometry":{
        "type":"Point",
        "coordinates": [
          -76.993634,
          38.797249
        ]
      }
    },
    {
      "type": "Feature",
      "properties":{
        "name": "CHS District Central Maryland Event sponsored by Leidos",
        "marker-symbol":"circle",
        "marker-size":"medium",
        "marker-color":"#357e7e",
        "key": "2018mdedg",
        "address": "201 Central Ave E, Edgewater, MD 21037, USA",
        "city": "Edgewater",
        "state_prov": "MD"
      },
      "geometry":{
        "type":"Point",
        "coordinates": [
          -76.5597373,
          38.9216639
        ]
      }
    },
    {
      "type": "Feature",
      "properties":{
        "name": "Michigan Advanced Robotics Competition",
        "marker-symbol":"circle",
        "marker-size":"medium",
        "marker-color":"#357e7e",
        "key": "2018marc",
        "address": "Monroe, MI, USA",
        "city": "Monroe",
        "state_prov": "MI"
      },
      "geometry":{
        "type":"Point",
        "coordinates": [
          -83.3977101,
          41.9164343
        ]
      }
    },
    {
      "type": "Feature",
      "properties":{
        "name": "Bayou Regional",
        "marker-symbol":"circle",
        "marker-size":"medium",
        "marker-color":"#357e7e",
        "key": "2018lake",
        "address": "4545 Williams Blvd, Kenner, LA 70065, USA",
        "city": "Kenner",
        "state_prov": "LA"
      },
      "geometry":{
        "type":"Point",
        "coordinates": [
          -90.240631,
          30.03932099999999
        ]
      }
    },
    {
      "type": "Feature",
      "properties":{
        "name": "Indiana Robotics Invitationall",
        "marker-symbol":"circle",
        "marker-size":"medium",
        "marker-color":"#357e7e",
        "key": "2018iri",
        "address": "7802 Hague Rd, Indianapolis, IN 46256, USA",
        "city": "Indianapolis",
        "state_prov": "IN"
      },
      "geometry":{
        "type":"Point",
        "coordinates": [
          -86.0349536,
          39.8961663
        ]
      }
    },
    {
      "type": "Feature",
      "properties":{
        "name": "IN District Tippecanoe Event",
        "marker-symbol":"circle",
        "marker-size":"medium",
        "marker-color":"#357e7e",
        "key": "2018inwla",
        "address": "5701 N 50 W, West Lafayette, IN 47906, USA",
        "city": "West Lafayette",
        "state_prov": "IN"
      },
      "geometry":{
        "type":"Point",
        "coordinates": [
          -86.91452620000001,
          40.499183
        ]
      }
    },
    {
      "type": "Feature",
      "properties":{
        "name": "IN District Plainfield Event sponsored by Toyota",
        "marker-symbol":"circle",
        "marker-size":"medium",
        "marker-color":"#357e7e",
        "key": "2018inpla",
        "address": "1 Red Pride Drive, Plainfield, IN 46168, USA",
        "city": "Plainfield",
        "state_prov": "IN"
      },
      "geometry":{
        "type":"Point",
        "coordinates": [
          -86.378766,
          39.6818979
        ]
      }
    },
    {
      "type": "Feature",
      "properties":{
        "name": "IN District St. Joseph Event",
        "marker-symbol":"circle",
        "marker-size":"medium",
        "marker-color":"#357e7e",
        "key": "2018inmis",
        "address": "56100 N Bittersweet Rd, Mishawaka, IN 46545, USA",
        "city": "Mishawaka",
        "state_prov": "IN"
      },
      "geometry":{
        "type":"Point",
        "coordinates": [
          -86.1077188,
          41.6789166
        ]
      }
    },
    {
      "type": "Feature",
      "properties":{
        "name": "Indiana State Championship",
        "marker-symbol":"circle",
        "marker-size":"medium",
        "marker-color":"#357e7e",
        "key": "2018incmp",
        "address": "5 E Superior St, Kokomo, IN 46901, USA",
        "city": "Kokomo",
        "state_prov": "IN"
      },
      "geometry":{
        "type":"Point",
        "coordinates": [
          -86.1265951,
          40.4852
        ]
      }
    },
    {
      "type": "Feature",
      "properties":{
        "name": "Central Illinois Regional",
        "marker-symbol":"circle",
        "marker-size":"medium",
        "marker-color":"#357e7e",
        "key": "2018ilpe",
        "address": "1501 W Bradley Ave, Peoria, IL 61625, USA",
        "city": "Peoria",
        "state_prov": "IL"
      },
      "geometry":{
        "type":"Point",
        "coordinates": [
          -89.6153484,
          40.6977743
        ]
      }
    },
    {
      "type": "Feature",
      "properties":{
        "name": "Midwest Regional",
        "marker-symbol":"circle",
        "marker-size":"medium",
        "marker-color":"#357e7e",
        "key": "2018ilch",
        "address": "525 S Racine Ave, Chicago, IL 60607, USA",
        "city": "Chicago",
        "state_prov": "IL"
      },
      "geometry":{
        "type":"Point",
        "coordinates": [
          -87.6561411,
          41.8748558
        ]
      }
    },
    {
      "type": "Feature",
      "properties":{
        "name": "Iowa Regional",
        "marker-symbol":"circle",
        "marker-size":"medium",
        "marker-color":"#357e7e",
        "key": "2018iacf",
        "address": "2501 Hudson Rd, Cedar Falls, IA 50614, USA",
        "city": "Cedar Falls",
        "state_prov": "IA"
      },
      "geometry":{
        "type":"Point",
        "coordinates": [
          -92.4672641,
          42.51436580000001
        ]
      }
    },
    {
      "type": "Feature",
      "properties":{
        "name": "PCH District Gainesville Event",
        "marker-symbol":"circle",
        "marker-size":"medium",
        "marker-color":"#357e7e",
        "key": "2018gagai",
        "address": "2001 Riverside Dr, Gainesville, GA 30501, USA",
        "city": "Gainesville",
        "state_prov": "GA"
      },
      "geometry":{
        "type":"Point",
        "coordinates": [
          -83.8325229,
          34.3323099
        ]
      }
    },
    {
      "type": "Feature",
      "properties":{
        "name": "PCH District Duluth Event",
        "marker-symbol":"circle",
        "marker-size":"medium",
        "marker-color":"#357e7e",
        "key": "2018gadul",
        "address": "6400 Sugarloaf Pkwy, Duluth, GA 30097, USA",
        "city": "Duluth",
        "state_prov": "GA"
      },
      "geometry":{
        "type":"Point",
        "coordinates": [
          -84.09392489999999,
          33.9916226
        ]
      }
    },
    {
      "type": "Feature",
      "properties":{
        "name": "PCH District Dalton Event",
        "marker-symbol":"circle",
        "marker-size":"medium",
        "marker-color":"#357e7e",
        "key": "2018gadal",
        "address": "2211 Dug Gap Battle Rd, Dalton, GA 30720, USA",
        "city": "Dalton",
        "state_prov": "GA"
      },
      "geometry":{
        "type":"Point",
        "coordinates": [
          -85.00542190000002,
          34.7592451
        ]
      }
    },
    {
      "type": "Feature",
      "properties":{
        "name": "PCH District Columbus Event",
        "marker-symbol":"circle",
        "marker-size":"medium",
        "marker-color":"#357e7e",
        "key": "2018gacol",
        "address": "4225 University Ave, Columbus, GA 31907, USA",
        "city": "Columbus",
        "state_prov": "GA"
      },
      "geometry":{
        "type":"Point",
        "coordinates": [
          -84.941446,
          32.5023087
        ]
      }
    },
    {
      "type": "Feature",
      "properties":{
        "name": "Peachtree District State Championship",
        "marker-symbol":"circle",
        "marker-size":"medium",
        "marker-color":"#357e7e",
        "key": "2018gacmp",
        "address": "100 Smith St, Athens, GA 30605, USA",
        "city": "Athens",
        "state_prov": "GA"
      },
      "geometry":{
        "type":"Point",
        "coordinates": [
          -83.3780926,
          33.9425366
        ]
      }
    },
    {
      "type": "Feature",
      "properties":{
        "name": "PCH District Albany Event",
        "marker-symbol":"circle",
        "marker-size":"medium",
        "marker-color":"#357e7e",
        "key": "2018gaalb",
        "address": "100 W Oglethorpe Blvd, Albany, GA 31701, USA",
        "city": "Albany",
        "state_prov": "GA"
      },
      "geometry":{
        "type":"Point",
        "coordinates": [
          -84.15004619999999,
          31.5738261
        ]
      }
    },
    {
      "type": "Feature",
      "properties":{
        "name": "FSU Roboday",
        "marker-symbol":"circle",
        "marker-size":"medium",
        "marker-color":"#357e7e",
        "key": "2018fsurd",
        "address": "210 Sports Dr, Big Rapids, MI 49307, USA",
        "city": "Big Rapids",
        "state_prov": "MI"
      },
      "geometry":{
        "type":"Point",
        "coordinates": [
          -85.4851195,
          43.6791655
        ]
      }
    },
    {
      "type": "Feature",
      "properties":{
        "name": "Orlando Regional",
        "marker-symbol":"circle",
        "marker-size":"medium",
        "marker-color":"#357e7e",
        "key": "2018flor",
        "address": "12777 Gemini Blvd N, Orlando, FL 32816, USA",
        "city": "Orlando",
        "state_prov": "FL"
      },
      "geometry":{
        "type":"Point",
        "coordinates": [
          -81.19736689999999,
          28.607225
        ]
      }
    },
    {
      "type": "Feature",
      "properties":{
        "name": "Darwin Division",
        "marker-symbol":"circle",
        "marker-size":"medium",
        "marker-color":"#357e7e",
        "key": "2018dar",
        "address": "1 Washington Blvd, Detroit, MI 48226, USA",
        "city": "Detroit",
        "state_prov": "MI"
      },
      "geometry":{
        "type":"Point",
        "coordinates": [
          -83.0499519999999,
          42.32661599999999
        ]
      }
    },
    {
      "type": "Feature",
      "properties":{
        "name": "Daly Division",
        "marker-symbol":"circle",
        "marker-size":"medium",
        "marker-color":"#357e7e",
        "key": "2018dal",
        "address": "1 Washington Blvd, Detroit, MI 48226, USA",
        "city": "Detroit",
        "state_prov": "MI"
      },
      "geometry":{
        "type":"Point",
        "coordinates": [
          -83.0499519999999,
          42.32661599999999
        ]
      }
    },
    {
      "type": "Feature",
      "properties":{
        "name": "Curie Division",
        "marker-symbol":"circle",
        "marker-size":"medium",
        "marker-color":"#357e7e",
        "key": "2018cur",
        "address": "1 Washington Blvd, Detroit, MI 48226, USA",
        "city": "Detroit",
        "state_prov": "MI"
      },
      "geometry":{
        "type":"Point",
        "coordinates": [
          -83.0499519999999,
          42.32661599999999
        ]
      }
    },
    {
      "type": "Feature",
      "properties":{
        "name": "Einstein Field (Detroit)",
        "marker-symbol":"circle",
        "marker-size":"medium",
        "marker-color":"#357e7e",
        "key": "2018cmpmi",
        "address": "Detroit, MI, USA",
        "city": "Detroit",
        "state_prov": "MI"
      },
      "geometry":{
        "type":"Point",
        "coordinates": [
          -83.0457538,
          42.331427
        ]
      }
    },
    {
      "type": "Feature",
      "properties":{
        "name": "FIRST Chesapeake District Championship",
        "marker-symbol":"circle",
        "marker-size":"medium",
        "marker-color":"#357e7e",
        "key": "2018chcmp",
        "address": "8500 Paint Branch Dr, College Park, MD 20740, USA",
        "city": "College Park",
        "state_prov": "MD"
      },
      "geometry":{
        "type":"Point",
        "coordinates": [
          -76.9415131,
          38.99546989999999
        ]
      }
    },
    {
      "type": "Feature",
      "properties":{
        "name": "Rocket City Regional",
        "marker-symbol":"circle",
        "marker-size":"medium",
        "marker-color":"#357e7e",
        "key": "2018alhu",
        "address": "700 Monroe St SW, Huntsville, AL 35801, USA",
        "city": "Huntsville",
        "state_prov": "AL"
      },
      "geometry":{
        "type":"Point",
        "coordinates": [
          -86.5902411,
          34.7266595
        ]
      }
    },
    {
      "type": "Feature",
      "properties":{
        "name": "Archimedes Division",
        "marker-symbol":"circle",
        "marker-size":"medium",
        "marker-color":"#357e7e",
        "key": "2018arc",
        "address": "1 Washington Blvd, Detroit, MI 48226, USA",
        "city": "Detroit",
        "state_prov": "MI"
      },
      "geometry":{
        "type":"Point",
        "coordinates": [
          -83.04995199999999,
          42.32661599999999
        ]
      }
    }
  ]
}